{
  "updatedAt": "2026-03-06",
  "area": "경기",
  "stations": [
    {
      "id": "A0033553",
      "name": "SK에너지㈜ 고산셀프주유소",
      "brand": "SKE",
      "price": 1709,
      "addr": "경기 의정부시 문충로 332",
      "lat": 37.7492,
      "lng": 127.1193
    },
    {
      "id": "A0033515",
      "name": "SK에너지(주) 내각주유소",
      "brand": "SKE",
      "price": 1715,
      "addr": "경기 남양주시 진접읍 금강로1190번길 23",
      "lat": 37.7082,
      "lng": 127.1757
    },
    {
      "id": "A0011905",
      "name": "영중농협주유소",
      "brand": "NHO",
      "price": 1718,
      "addr": "경기 포천시 영중면 호국로 2936",
      "lat": 38.004,
      "lng": 127.2486
    },
    {
      "id": "A0004484",
      "name": "㈜임건제2주유소",
      "brand": "SOL",
      "price": 1718,
      "addr": "경기 포천시 영중면 호국로 2931",
      "lat": 38.0042,
      "lng": 127.248
    },
    {
      "id": "A0033128",
      "name": "관인농협클린주유소",
      "brand": "SOL",
      "price": 1720,
      "addr": "경기 포천시 관인면 창동로 1844-1",
      "lat": 38.1558,
      "lng": 127.2534
    },
    {
      "id": "A0006717",
      "name": "양동농협주유소",
      "brand": "NHO",
      "price": 1720,
      "addr": "경기 양평군 양동면 여양3로 661",
      "lat": 37.4042,
      "lng": 127.7493
    },
    {
      "id": "A0003951",
      "name": "대림주유소",
      "brand": "RTO",
      "price": 1720,
      "addr": "경기 여주시 금사면 금품1로 436",
      "lat": 37.4075,
      "lng": 127.4805
    },
    {
      "id": "A0004574",
      "name": "㈜호호클린 주유소",
      "brand": "SKE",
      "price": 1727,
      "addr": "경기 포천시 관인면 북원로 749",
      "lat": 38.1525,
      "lng": 127.2413
    },
    {
      "id": "A0033609",
      "name": "전곡농협 백학주유소",
      "brand": "NHO",
      "price": 1728,
      "addr": "경기 연천군 백학면 청정로 516-1",
      "lat": 38.03,
      "lng": 126.9176
    },
    {
      "id": "A0011901",
      "name": "연천농협주유소",
      "brand": "NHO",
      "price": 1728,
      "addr": "경기 연천군 연천읍 평화로 1211",
      "lat": 38.0769,
      "lng": 127.0776
    }
  ]
}