{
  "updatedAt": "2026-03-06",
  "area": "강원",
  "stations": [
    {
      "id": "A0004471",
      "name": "형제주유소",
      "brand": "HDO",
      "price": 1648,
      "addr": "강원 철원군 동송읍 금학로 14",
      "lat": 38.1915,
      "lng": 127.2294
    },
    {
      "id": "A0011544",
      "name": "임계농협주유소",
      "brand": "NHO",
      "price": 1670,
      "addr": "강원 정선군 임계면 서동로 4570",
      "lat": 37.4961,
      "lng": 128.8539
    },
    {
      "id": "A0032992",
      "name": "동해농협클린주유소",
      "brand": "NHO",
      "price": 1680,
      "addr": "강원 동해시 대동로 249",
      "lat": 37.496,
      "lng": 129.1268
    },
    {
      "id": "A0011050",
      "name": "두원일공오주유소",
      "brand": "HDO",
      "price": 1685,
      "addr": "강원 원주시 현충로 40",
      "lat": 37.3585,
      "lng": 127.9569
    },
    {
      "id": "A0011150",
      "name": "횡성농협 유현지점주유소",
      "brand": "NHO",
      "price": 1688,
      "addr": "강원 횡성군 서원면 경강로 800",
      "lat": 37.5255,
      "lng": 127.8867
    },
    {
      "id": "A0010323",
      "name": "길성주유소",
      "brand": "SKE",
      "price": 1689,
      "addr": "강원 춘천시 사북면 춘화로 536",
      "lat": 37.9856,
      "lng": 127.7118
    },
    {
      "id": "A0010452",
      "name": "광바위주유소",
      "brand": "GSC",
      "price": 1698,
      "addr": "강원 화천군 하남면 춘화로 2613",
      "lat": 38.0406,
      "lng": 127.7109
    },
    {
      "id": "A0010567",
      "name": "묵호주유소",
      "brand": "SOL",
      "price": 1698,
      "addr": "강원도 동해시 해안로 595 (발한동)",
      "lat": 37.5567,
      "lng": 129.1081
    },
    {
      "id": "A0011171",
      "name": "문막(인천방향)주유소",
      "brand": "RTX",
      "price": 1699,
      "addr": "강원도 원주시 문막읍 개나루길 13",
      "lat": 37.2964,
      "lng": 127.8193
    },
    {
      "id": "A0033348",
      "name": "삼척농협하장지점주유소",
      "brand": "NHO",
      "price": 1700,
      "addr": "강원 삼척시 하장면 백두대간로 2689",
      "lat": 37.3591,
      "lng": 128.9293
    }
  ]
}