{
  "updatedAt": "2026-03-06",
  "area": "경북",
  "stations": [
    {
      "id": "A0033503",
      "name": "강구농협달산지점주유소",
      "brand": "NHO",
      "price": 1668,
      "addr": "경북 영덕군 달산면 팔각산로 1828-13",
      "lat": 36.4089,
      "lng": 129.3078
    },
    {
      "id": "A0025781",
      "name": "춘양농협주유소",
      "brand": "NHO",
      "price": 1680,
      "addr": "경북 봉화군 춘양면 소천로 36",
      "lat": 36.9263,
      "lng": 128.9254
    },
    {
      "id": "A0025681",
      "name": "중화농협-화북",
      "brand": "NHO",
      "price": 1690,
      "addr": "경북 상주시 화북면 문장로 1725",
      "lat": 36.5624,
      "lng": 127.9231
    },
    {
      "id": "A0025562",
      "name": "화북주유소",
      "brand": "SKE",
      "price": 1690,
      "addr": "경북 상주시 화북면 문장로 1744",
      "lat": 36.5654,
      "lng": 127.9195
    },
    {
      "id": "A0025891",
      "name": "봉화농협재산지점주유소",
      "brand": "NHO",
      "price": 1695,
      "addr": "경북 봉화군 재산로 599",
      "lat": 36.8285,
      "lng": 128.9695
    },
    {
      "id": "A0023161",
      "name": "덕곡주유소",
      "brand": "SOL",
      "price": 1695,
      "addr": "경북 고령군 덕곡면 덕운로 569",
      "lat": 35.7825,
      "lng": 128.2347
    },
    {
      "id": "A0024875",
      "name": "강구농협남정지점주유소",
      "brand": "NHO",
      "price": 1698,
      "addr": "경북 영덕군 남정면 산정로 7",
      "lat": 36.2966,
      "lng": 129.378
    },
    {
      "id": "A0024879",
      "name": "강구농협주유소",
      "brand": "NHO",
      "price": 1698,
      "addr": "경북 영덕군 강구면 강구시장길 40-6",
      "lat": 36.3696,
      "lng": 129.3825
    },
    {
      "id": "A0025237",
      "name": "새의성농협주유소",
      "brand": "NHO",
      "price": 1699,
      "addr": "경북 의성군 점곡면 의성길안로 1198",
      "lat": 36.42,
      "lng": 128.7786
    },
    {
      "id": "A0025157",
      "name": "영양농협주유소",
      "brand": "NHO",
      "price": 1705,
      "addr": "경북 영양군 영양읍 영양창수로 136-7",
      "lat": 36.6674,
      "lng": 129.1322
    }
  ]
}