{
  "updatedAt": "2026-03-06",
  "area": "부산",
  "stations": [
    {
      "id": "A0027597",
      "name": "부산축산업협동조합 농협주유소",
      "brand": "NHO",
      "price": 1739,
      "addr": "부산광역시 강서구  낙동남로 448 (녹산동)",
      "lat": 35.1208,
      "lng": 128.8723
    },
    {
      "id": "A0027658",
      "name": "지에스칼텍스(주)강변주유소",
      "brand": "GSC",
      "price": 1745,
      "addr": "부산 사상구 강변대로 412 (엄궁동)",
      "lat": 35.1317,
      "lng": 128.9652
    },
    {
      "id": "A0027651",
      "name": "지에스칼텍스(주)자이언트주유소",
      "brand": "GSC",
      "price": 1745,
      "addr": "부산 사상구 강변대로 458 (엄궁동)",
      "lat": 35.1359,
      "lng": 128.9666
    },
    {
      "id": "A0031391",
      "name": "지에스칼텍스㈜ 유엔주유소",
      "brand": "GSC",
      "price": 1749,
      "addr": "부산 남구 유엔로 202",
      "lat": 35.1408,
      "lng": 129.102
    },
    {
      "id": "A0027749",
      "name": "에스씨㈜ 우리주유소",
      "brand": "GSC",
      "price": 1757,
      "addr": "부산 해운대구 수영강변대로 276",
      "lat": 35.1941,
      "lng": 129.1228
    },
    {
      "id": "A0031358",
      "name": "SK에너지(주) 마리나주유소",
      "brand": "SKE",
      "price": 1757,
      "addr": "부산 해운대구 해운대로 345 (우동)",
      "lat": 35.1825,
      "lng": 129.1391
    },
    {
      "id": "A0027421",
      "name": "경동주유소",
      "brand": "HDO",
      "price": 1758,
      "addr": "부산 사상구 백양대로 386 (주례동)",
      "lat": 35.163,
      "lng": 129.0132
    },
    {
      "id": "A0027699",
      "name": "지에스칼텍스(주)구포셀프주유소",
      "brand": "GSC",
      "price": 1758,
      "addr": "부산 북구 사상로 619 (구포동)",
      "lat": 35.2092,
      "lng": 128.9944
    },
    {
      "id": "A0027816",
      "name": "SK에너지㈜직영 삼진셀프주유소",
      "brand": "SKE",
      "price": 1769,
      "addr": "부산 북구 의성로53번길 5",
      "lat": 35.2257,
      "lng": 129.0129
    },
    {
      "id": "A0031321",
      "name": "지에스칼텍스(주)해운주유소",
      "brand": "GSC",
      "price": 1769,
      "addr": "부산 해운대구 해운대로 615 (우동)",
      "lat": 35.1748,
      "lng": 129.1617
    }
  ]
}