{
  "updatedAt": "2026-03-06",
  "area": "제주",
  "stations": [
    {
      "id": "A0031115",
      "name": "제주시농협 동부주유소",
      "brand": "NHO",
      "price": 1740,
      "addr": "제주 제주시 번영로 417 (봉개동)",
      "lat": 33.5137,
      "lng": 126.5878
    },
    {
      "id": "A0031121",
      "name": "제주시농협서부주유소",
      "brand": "NHO",
      "price": 1740,
      "addr": "제주 제주시 일주서로 7422 (내도동)",
      "lat": 33.5146,
      "lng": 126.4399
    },
    {
      "id": "A0031078",
      "name": "제주시농협 한라산주유소",
      "brand": "GSC",
      "price": 1740,
      "addr": "제주도 제주시 연북로 508 (아라일동)",
      "lat": 33.504,
      "lng": 126.5352
    },
    {
      "id": "A0031125",
      "name": "대정농협무릉주유소",
      "brand": "NHO",
      "price": 1750,
      "addr": "제주 서귀포시 대정읍 서삼중로 66",
      "lat": 33.2942,
      "lng": 126.2038
    },
    {
      "id": "A0031107",
      "name": "대정농협주유소",
      "brand": "NHO",
      "price": 1750,
      "addr": "제주 서귀포시 대정읍 상모대서로 55",
      "lat": 33.2523,
      "lng": 126.2579
    },
    {
      "id": "A0030883",
      "name": "감산주유소",
      "brand": "SKE",
      "price": 1760,
      "addr": "제주 서귀포시 안덕면 일주서로 1487",
      "lat": 33.2829,
      "lng": 126.3559
    },
    {
      "id": "A0030925",
      "name": "희진주유소",
      "brand": "SKE",
      "price": 1760,
      "addr": "제주특별자치도 서귀포시 성산읍 일주동로 5160",
      "lat": 33.3939,
      "lng": 126.874
    },
    {
      "id": "A0031117",
      "name": "제주안덕농협주유소",
      "brand": "NHO",
      "price": 1760,
      "addr": "제주 서귀포시 안덕면 화순로 122",
      "lat": 33.2701,
      "lng": 126.3331
    },
    {
      "id": "A0030832",
      "name": "동귀주유소",
      "brand": "SKE",
      "price": 1770,
      "addr": "제주특별자치도 제주시 애월읍 일주서로 7092",
      "lat": 33.5056,
      "lng": 126.407
    },
    {
      "id": "A0031108",
      "name": "큰엉주유소",
      "brand": "GSC",
      "price": 1770,
      "addr": "제주 서귀포시 남원읍 태위로 610",
      "lat": 33.296,
      "lng": 126.7124
    }
  ]
}