{
  "updatedAt": "2026-03-06",
  "area": "세종",
  "stations": [
    {
      "id": "A0014203",
      "name": "지에스칼텍스㈜ 석곡셀프주유소",
      "brand": "GSC",
      "price": 1779,
      "addr": "세종 전동면 하석곡길 64-10",
      "lat": 36.6578,
      "lng": 127.2605
    },
    {
      "id": "A0033199",
      "name": "SK에너지(주) 소담self주유소",
      "brand": "SKE",
      "price": 1788,
      "addr": "세종특별자치시 소담로 40",
      "lat": 36.488,
      "lng": 127.3069
    },
    {
      "id": "A0033267",
      "name": "지에스칼텍스㈜ 세종청사주유소",
      "brand": "GSC",
      "price": 1798,
      "addr": "세종특별자치시 보듬5로 6",
      "lat": 36.5204,
      "lng": 127.2596
    },
    {
      "id": "A0014142",
      "name": "실광주유소",
      "brand": "HDO",
      "price": 1798,
      "addr": "세종특별자치시 연기면 당산로 239",
      "lat": 36.5581,
      "lng": 127.2781
    },
    {
      "id": "A0033513",
      "name": "세종중앙농협주유소",
      "brand": "NHO",
      "price": 1799,
      "addr": "세종특별자치시 연기면 잣띠길 4",
      "lat": 36.5522,
      "lng": 127.2803
    },
    {
      "id": "A0033210",
      "name": "세종부강농협주유소",
      "brand": "NHO",
      "price": 1799,
      "addr": "세종특별자치시 부강면 부강외천로 10",
      "lat": 36.5299,
      "lng": 127.3707
    },
    {
      "id": "A0014379",
      "name": "세종예운주유소",
      "brand": "HDO",
      "price": 1799,
      "addr": "세종 부강면 부강외천로 301",
      "lat": 36.5328,
      "lng": 127.4018
    },
    {
      "id": "A0014448",
      "name": "동세종농협주유소",
      "brand": "NHO",
      "price": 1800,
      "addr": "세종특별자치시 연동면 청연로 490",
      "lat": 36.5524,
      "lng": 127.3322
    },
    {
      "id": "A0014190",
      "name": "HD현대오일뱅크㈜직영 청사셀프주유소",
      "brand": "HDO",
      "price": 1802,
      "addr": "세종특별자치시 다솜로 38 (어진동)",
      "lat": 36.5,
      "lng": 127.2585
    },
    {
      "id": "A0014464",
      "name": "HD현대오일뱅크㈜직영 대일주유소",
      "brand": "HDO",
      "price": 1808,
      "addr": "세종특별자치시 연서면 세종로 2137",
      "lat": 36.5813,
      "lng": 127.2934
    }
  ]
}